{"type":"FeatureCollection","features":[{"type":"Feature","properties":{"Nombre":"Bar la Era","Tapa-1":"Saquito de Carrillada al PX con patatas chips","Tapa-2":"Caramelo de morcilla al PX con piña"},"geometry":{"type":"Point","coordinates":[-4.695695083223335,37.647039000112684]}},{"type":"Feature","properties":{"Nombre":"Casino","Tapa-1":"Lomo al moscatel con nido de patata","Tapa-2":"Langostino con hilo de patata al PX"},"geometry":{"type":"Point","coordinates":[-4.698972209735326,37.64857045625443]}},{"type":"Feature","properties":{"Nombre":"Bar Cordoba","Tapa-1":"Costillitas de cerdo al PX","Tapa-2":"Pisto con migas de bacalao"},"geometry":{"type":"Point","coordinates":[-4.698655709071615,37.649105626309684]}},{"type":"Feature","properties":{"Nombre":"Rincón de Carmen","Tapa-1":"Salmorejo al estilo Rincón","Tapa-2":"Solomillo mallorquín al PX"},"geometry":{"type":"Point","coordinates":[-4.69727438580213,37.64534556168836]}},{"type":"Feature","properties":{"Nombre":"Bar la Noria","Tapa-1":"Lagartillo ibérico sobre cama de verduras al PX","Tapa-2":"Timbal de patata picantona y carne magra al PX"},"geometry":{"type":"Point","coordinates":[-4.6998012931456286,37.645053014653804]}},{"type":"Feature","properties":{"Nombre":"C`es cafeteria","Tapa-1":"Rollitos de salmón","Tapa-2":"Delicia 3 quesos con aroma de fresa y piñones gratinados al PX"},"geometry":{"type":"Point","coordinates":[-4.700107064973253,37.645452287777964]}},{"type":"Feature","properties":{"Nombre":"Hotel Castillo ","Tapa-1":"Chipirón patagónico con balsámico de vinagre añejo","Tapa-2":"Bacalao con alboronía de PX y bartolito de pan"},"geometry":{"type":"Point","coordinates":[-4.703716110428069,37.64547803585135]}},{"type":"Feature","properties":{"Nombre":"El Cary","Tapa-1":"Albóndigas de rabo de toro al PX","Tapa-2":"Calamar relleno de marisco y jamón"},"geometry":{"type":"Point","coordinates":[-4.702868532379539,37.64545255040575]}},{"type":"Feature","properties":{"Nombre":"La Posada ","Tapa-1":"Flamenquín de la abuela con ali-oli","Tapa-2":"Capricho de solomillo al PX"},"geometry":{"type":"Point","coordinates":[-4.699137601200008,37.647848161138654]}},{"type":"Feature","properties":{"Nombre":"La Tentación ","Tapa-1":"Aro de tortilla de patatas con salmorejo y crujiente de jamón","Tapa-2":"Carne mechada con salsa y tartaleta de verduritas al PX"},"geometry":{"type":"Point","coordinates":[-4.698790977924829,37.648820806690466]}}]}