{"type":"FeatureCollection","features":[{"type":"Feature","properties":{"Nombre":"Bar la Era","Tapa-1":"Saquito de Carrillada al PX con patatas chips","Tapa-2":"null","Cómo llegar":"null"},"geometry":{"type":"Point","coordinates":[-4.695695083223335,37.64703900011269]}},{"type":"Feature","properties":{"Nombre":"Casino","Tapa-1":"null","Tapa-2":"null","Cómo llegar":"null"},"geometry":{"type":"Point","coordinates":[-4.698972209735326,37.64857045625444]}},{"type":"Feature","properties":{"Nombre":"Bar Cordoba","Tapa-1":"null","Tapa-2":"null","Cómo llegar":"null"},"geometry":{"type":"Point","coordinates":[-4.698655709071615,37.64910562630969]}},{"type":"Feature","properties":{"Nombre":"Rincón de Carmen","Tapa-1":"null","Tapa-2":"null","Cómo llegar":"null"},"geometry":{"type":"Point","coordinates":[-4.69727438580213,37.645345561688366]}},{"type":"Feature","properties":{"Nombre":"Bar la Noria","Tapa-1":"null","Tapa-2":"null","Cómo llegar":"null"},"geometry":{"type":"Point","coordinates":[-4.6998012931456286,37.645053014653804]}},{"type":"Feature","properties":{"Nombre":"C`es cafeteria","Tapa-1":"null","Tapa-2":"null","Cómo llegar":"null"},"geometry":{"type":"Point","coordinates":[-4.700107064973253,37.645452287777964]}},{"type":"Feature","properties":{"Nombre":"Hotel Castillo ","Tapa-1":"null","Tapa-2":"null","Cómo llegar":"null"},"geometry":{"type":"Point","coordinates":[-4.703716110428069,37.64547803585133]}},{"type":"Feature","properties":{"Nombre":"El Cary","Tapa-1":"null","Tapa-2":"null","Cómo llegar":"null"},"geometry":{"type":"Point","coordinates":[-4.702868532379539,37.645452550405764]}},{"type":"Feature","properties":{"Nombre":"La Posada ","Tapa-1":"null","Tapa-2":"null","Cómo llegar":"null"},"geometry":{"type":"Point","coordinates":[-4.699137601200008,37.647848161138675]}},{"type":"Feature","properties":{"Nombre":"La Tentación ","Tapa-1":"null","Tapa-2":"null","Cómo llegar":"null"},"geometry":{"type":"Point","coordinates":[-4.698790977924829,37.64882080669047]}}]}