{"type":"FeatureCollection","features":[{"type":"Feature","properties":{"Nombre":"Bar la Era","Tapa-1":" Canutillos rellenos de bechamel al PX","Tapa-2":"Tiras de solomillo rebozadas al PX"},"geometry":{"type":"Point","coordinates":[-4.695695083223335,37.647039000112684]}},{"type":"Feature","properties":{"Nombre":"El Casino","Tapa-1":"Albóndigas de choco con PX","Tapa-2":"Carne con tomate de la casa"},"geometry":{"type":"Point","coordinates":[-4.698972209735326,37.64857045625443]}},{"type":"Feature","properties":{"Nombre":"Bar Cordoba","Tapa-1":"Rebaná de lomo a la sal con ensaladilla","Tapa-2":"Empanadilla de espinacas con canapés de queso al PX"},"geometry":{"type":"Point","coordinates":[-4.698655709071615,37.649105626309684]}},{"type":"Feature","properties":{"Nombre":"Bar la Noria","Tapa-1":"Semáforo al PX con verduras de la huerta","Tapa-2":"Pluma al PX"},"geometry":{"type":"Point","coordinates":[-4.6998012931456286,37.645053014653804]}},{"type":"Feature","properties":{"Nombre":"Hotel Castillo de Montemayor","Tapa-1":"Albóndigas de secreto ibérico al PX","Tapa-2":"Cazuela de arroz con bacalao y chorizo"},"geometry":{"type":"Point","coordinates":[-4.703716110428069,37.64547803585135]}},{"type":"Feature","properties":{"Nombre":"Restaurante El Cary","Tapa-1":"Salpicón tropical","Tapa-2":"Butifarra con champiñones, pasas y almendras al PX"},"geometry":{"type":"Point","coordinates":[-4.702868532379539,37.64545255040575]}},{"type":"Feature","properties":{"Nombre":"La Posada del Castillo","Tapa-1":"Rollito de primavera ibérico al Pedro Ximénez","Tapa-2":"Timbal de bacalao con ali-oli de ajo asado"},"geometry":{"type":"Point","coordinates":[-4.699137601200008,37.64784816113864]}},{"type":"Feature","properties":{"Nombre":"La Tentación Golosinas","Tapa-1":"Rollito relleno con salsa PX","Tapa-2":"Montadito de lomo con pimiento piquillo caramelizado al PX"},"geometry":{"type":"Point","coordinates":[-4.698790977924829,37.648820806690466]}},{"type":"Feature","properties":{"Nombre":"Restaurante La Piscina Municipal","Tapa-1":"Tostada de pollo y cebolla caramelizada","Tapa-2":"Medallón de solomillo al Pedro Ximénez"},"geometry":{"type":"Point","coordinates":[-4.693321946557981,37.643987122578174]}}]}